{"13002":{"name":"NE Extension","lat":21,"lon":-23,"type":"buoy","owner":"Prediction and Research Moored Array in the Atlantic"},"13008":{"name":"Reggae","lat":15,"lon":-38,"type":"buoy","owner":"Prediction and Research Moored Array in the Atlantic"},"14049":{"name":"","lat":-12,"lon":65,"type":"buoy","owner":"Research Moored Array for African-Asian-Australian Monsoon Analysis and Prediction"},"15001":{"name":"Gavotte","lat":-10,"lon":-10,"type":"buoy","owner":"Prediction and Research Moored Array in the Atlantic"},"15002":{"name":"Java","lat":0,"lon":-10,"type":"buoy","owner":"Prediction and Research Moored Array in the Atlantic"},"15006":{"name":"Valse","lat":-6,"lon":-10,"type":"buoy","owner":"Prediction and Research Moored Array in the Atlantic"},"22101":{"name":"","lat":37.23,"lon":126.02,"type":"buoy","owner":"Korean Meteorological Administration"},"22102":{"name":"","lat":34.8,"lon":125.77,"type":"buoy","owner":"Korean Meteorological Administration"},"22103":{"name":"","lat":34,"lon":127.5,"type":"buoy","owner":"Korean Meteorological Administration"},"22104":{"name":"","lat":34.77,"lon":128.9,"type":"buoy","owner":"Korean Meteorological Administration"},"22105":{"name":"","lat":37.53,"lon":130,"type":"buoy","owner":"Korean Meteorological Administration"},"22106":{"name":"","lat":36.35,"lon":129.78,"type":"buoy","owner":"Korean Meteorological Administration"},"22107":{"name":"","lat":33.08,"lon":126.03,"type":"buoy","owner":"Korean Meteorological Administration"},"22108":{"name":"","lat":36.25,"lon":125.75,"type":"buoy","owner":"Korean Meteorological Administration"},"23009":{"name":"","lat":15,"lon":90,"type":"buoy","owner":"Research Moored Array for African-Asian-Australian Monsoon Analysis and Prediction"},"23010":{"name":"","lat":-4,"lon":81,"type":"buoy","owner":"Research Moored Array for African-Asian-Australian Monsoon Analysis and Prediction"},"23014":{"name":"","lat":2,"lon":67,"type":"buoy","owner":"Research Moored Array for African-Asian-Australian Monsoon Analysis and Prediction"},"23019":{"name":"","lat":-4,"lon":65,"type":"buoy","owner":"Research Moored Array for African-Asian-Australian Monsoon Analysis and Prediction"},"31003":{"name":"Para?ba","lat":-8,"lon":-30,"type":"buoy","owner":"Prediction and Research Moored Array in the Atlantic"},"31006":{"name":"NE Extension","lat":4,"lon":-23,"type":"buoy","owner":"Prediction and Research Moored Array in the Atlantic"},"31007":{"name":"Jazz","lat":0,"lon":-23,"type":"buoy","owner":"Prediction and Research Moored Array in the Atlantic"},"41024":{"name":"Sunset Nearshore, NC (SUN2)","lat":33.837,"lon":-78.477,"type":"buoy","owner":"CORMP"},"41029":{"name":"Capers Nearshore, SC (CAP2)","lat":32.803,"lon":-79.624,"type":"buoy","owner":"CORMP"},"41033":{"name":"Fripp Nearshore, SC (FRP2)","lat":32.279,"lon":-80.406,"type":"buoy","owner":"CORMP"},"41037":{"name":"Wrightsville Beach Offshore, NC (ILM3)","lat":33.988,"lon":-77.362,"type":"buoy","owner":"CORMP"},"41038":{"name":"Wrightsville Beach Nearshore, NC (ILM2)","lat":34.141,"lon":-77.715,"type":"buoy","owner":"CORMP"},"41052":{"name":"South of St. John, VI","lat":18.249,"lon":-64.763,"type":"buoy","owner":"Caribbean Integrated Coastal Ocean Observing System (CarICoos)"},"41053":{"name":"San Juan, PR","lat":18.474,"lon":-66.099,"type":"buoy","owner":"Caribbean Integrated Coastal Ocean Observing System (CarICoos)"},"41056":{"name":"Vieques Island, PR","lat":18.261,"lon":-65.464,"type":"buoy","owner":"Caribbean Integrated Coastal Ocean Observing System (CarICoos)"},"41064":{"name":"Onslow Bay Outer, NC (LEJ3)","lat":34.207,"lon":-76.949,"type":"buoy","owner":"CORMP"},"41065":{"name":"Capers Nearshore Waves (CAP2WAVE)","lat":32.802,"lon":-79.619,"type":"buoy","owner":"CORMP"},"41066":{"name":"CHR60","lat":32.536,"lon":-79.656,"type":"buoy","owner":"CORMP"},"41067":{"name":"FRP2WAVE","lat":32.276,"lon":-80.406,"type":"buoy","owner":"CORMP"},"41068":{"name":"Fort Pierce, FL (FTP)","lat":27.593,"lon":-80.189,"type":"buoy","owner":"CORMP"},"41069":{"name":"Ponce de Leon Inlet, FL (PNC)","lat":29.289,"lon":-80.803,"type":"buoy","owner":"CORMP"},"41070":{"name":"Ponce de Leon Inlet Waves (PNCWAVE)","lat":29.289,"lon":-80.803,"type":"buoy","owner":"CORMP"},"41076":{"name":"CHR60WAVE","lat":32.536,"lon":-79.659,"type":"buoy","owner":"CORMP"},"41082":{"name":"OOI Pioneer - Mid-Atlantic Bight Central Surface Mooring","lat":35.95,"lon":-75.125,"type":"buoy","owner":"NSF Ocean Observatories Initiative"},"41083":{"name":"OOI Pioneer - Mid-Atlantic Bight Southern Surface Mooring","lat":35.725,"lon":-74.853,"type":"buoy","owner":"NSF Ocean Observatories Initiative"},"41108":{"name":"Wilmington Harbor, NC - (200)","lat":33.719,"lon":-78.016,"type":"buoy","owner":"SCRIPPS"},"41110":{"name":"Masonboro Inlet, ILM2, NC (150)","lat":34.144,"lon":-77.715,"type":"buoy","owner":"CORMP"},"41112":{"name":"Offshore Fernandina Beach, FL (132)","lat":30.709,"lon":-81.292,"type":"buoy","owner":"SCRIPPS"},"41113":{"name":"Cape Canaveral Nearshore, FL (143)","lat":28.4,"lon":-80.533,"type":"buoy","owner":"SCRIPPS"},"41114":{"name":"Fort Pierce, FL (134)","lat":27.552,"lon":-80.216,"type":"buoy","owner":"SCRIPPS"},"41115":{"name":"Rincon, Puerto Rico (181)","lat":18.376,"lon":-67.28,"type":"buoy","owner":"Caribbean Integrated Coastal Ocean Observing System (CarICoos)"},"41117":{"name":"St. Augustine, FL (194)","lat":29.999,"lon":-81.079,"type":"buoy","owner":"U.S. Army Corps of Engineers"},"41121":{"name":"Arecibo, Puerto Rico (249)","lat":18.491,"lon":-66.701,"type":"buoy","owner":"Caribbean Integrated Coastal Ocean Observing System (CarICoos)"},"41122":{"name":"Hollywood Beach, FL (265)","lat":26.001,"lon":-80.096,"type":"buoy","owner":"SCRIPPS"},"41159":{"name":"Onslow Bay Outer, NC (217)","lat":34.211,"lon":-76.944,"type":"buoy","owner":"CORMP"},"42013":{"name":"C10 - WFS Central Buoy, 25m Isobath","lat":27.173,"lon":-82.924,"type":"buoy","owner":"COMPS (University of South Florida)"},"42022":{"name":"C12 - WFS Central Buoy, 50m Isobath","lat":27.505,"lon":-83.741,"type":"buoy","owner":"COMPS (University of South Florida)"},"42023":{"name":"C13 - WFS South Buoy, 50m Isobath","lat":26.01,"lon":-83.086,"type":"buoy","owner":"COMPS (University of South Florida)"},"42026":{"name":"C22 - Loop Current Pressure Point Buoy, 70m Isobath","lat":25.171,"lon":-83.475,"type":"buoy","owner":"COMPS (University of South Florida)"},"42027":{"name":"C23 - FLRACEP nWFS Buoy, 45m isobath","lat":29.045,"lon":-85.305,"type":"buoy","owner":"COMPS (University of South Florida)"},"42028":{"name":"C24 - FLRACEP nWFS Buoy, 58m isobath","lat":29.745,"lon":-86.227,"type":"buoy","owner":"COMPS (University of South Florida)"},"42067":{"name":"USM-R1","lat":30.05,"lon":-88.583,"type":"buoy","owner":"USM"},"42084":{"name":"Southwest Pass Entrance W, LA (256)","lat":28.988,"lon":-89.649,"type":"buoy","owner":"SCRIPPS"},"42085":{"name":"Southeast of Ponce, PR","lat":17.87,"lon":-66.537,"type":"buoy","owner":"Caribbean Integrated Coastal Ocean Observing System (CarICoos)"},"42092":{"name":"Aransas Pass Channel Entrance S, TX (252)","lat":27.639,"lon":-97.012,"type":"buoy","owner":"Conrad Blucher Institute (CBI) for Surveying and Science, Texas A&amp;M University-Corpus Christi"},"42095":{"name":"Satan Shoal, FL (244)","lat":24.407,"lon":-81.968,"type":"buoy","owner":"U.S. Army Corps of Engineers"},"42097":{"name":"Pulley Ridge, FL (226)","lat":25.704,"lon":-83.654,"type":"buoy","owner":"U.S. Army Corps of Engineers"},"42098":{"name":"Egmont Channel Entrance, FL (214)","lat":27.59,"lon":-82.931,"type":"buoy","owner":"Greater Tampa Bay Marine Advisory Council-PORTS"},"42099":{"name":"Offshore St. Petersburg, FL (144)","lat":27.352,"lon":-84.275,"type":"buoy","owner":"SCRIPPS"},"42354":{"name":"Chandeleur Island SE, LA (279)","lat":29.579,"lon":-88.643,"type":"buoy","owner":"SCRIPPS"},"44029":{"name":"Buoy A01 - Massachusetts Bay","lat":42.523,"lon":-70.566,"type":"buoy","owner":"Northeastern Regional Association of Coastal Ocean Observing Systems"},"44030":{"name":"Buoy B01 - Western Maine Shelf","lat":43.179,"lon":-70.426,"type":"buoy","owner":"Northeastern Regional Association of Coastal Ocean Observing Systems"},"44034":{"name":"Buoy I01 - Eastern Maine Shelf","lat":44.103,"lon":-68.112,"type":"buoy","owner":"Northeastern Regional Association of Coastal Ocean Observing Systems"},"44042":{"name":"Potomac, MD","lat":38.033,"lon":-76.335,"type":"buoy","owner":"Chesapeake Bay Interpretive Buoy System (CBIBS)"},"44056":{"name":"Duck FRF, NC","lat":36.2,"lon":-75.714,"type":"buoy","owner":"U.S. Army Corps of Engineers"},"44072":{"name":"York Spit, VA   ","lat":37.201,"lon":-76.266,"type":"buoy","owner":"Chesapeake Bay Interpretive Buoy System (CBIBS)"},"44073":{"name":"CO2 Gulf of Maine Buoy","lat":43.02,"lon":-70.54,"type":"buoy","owner":"University of New Hampshire"},"44078":{"name":"OOI Irminger Sea Surface Mooring","lat":59.94,"lon":-39.52,"type":"buoy","owner":"NSF Ocean Observatories Initiative"},"44079":{"name":"OOI Pioneer - Mid-Atlantic Bight Northern Surface Mooring","lat":36.175,"lon":-74.827,"type":"buoy","owner":"NSF Ocean Observatories Initiative"},"44080":{"name":"Baltimore","lat":39.223,"lon":-76.528,"type":"buoy","owner":"Chesapeake Bay Interpretive Buoy System (CBIBS)"},"44084":{"name":"Bethany Beach, DE (263)","lat":38.537,"lon":-75.044,"type":"buoy","owner":"SCRIPPS"},"44086":{"name":"Nags Head, NC (243)","lat":36.001,"lon":-75.421,"type":"buoy","owner":"UNC Coastal Studies Institute"},"44088":{"name":"Virginia Beach Offshore, VA (171)","lat":36.612,"lon":-74.839,"type":"buoy","owner":"SCRIPPS"},"44091":{"name":"Barnegat, NJ (209)","lat":39.772,"lon":-73.769,"type":"buoy","owner":"U.S. Army Corps of Engineers"},"44095":{"name":"Oregon Inlet, NC (192)","lat":35.75,"lon":-75.33,"type":"buoy","owner":"UNC Coastal Studies Institute"},"44097":{"name":"Block Island, RI  (154)","lat":40.967,"lon":-71.124,"type":"buoy","owner":"SCRIPPS"},"44098":{"name":"Jeffrey's Ledge, NH (160)","lat":42.8,"lon":-70.169,"type":"buoy","owner":"University of New Hampshire"},"44099":{"name":"Cape Henry, VA (147)","lat":36.915,"lon":-75.722,"type":"buoy","owner":"SCRIPPS"},"44137":{"name":"East Scotia Slope","lat":42.26,"lon":-62.03,"type":"buoy","owner":"Environment and Climate Change Canada"},"44150":{"name":"La Have Bank","lat":42.5,"lon":-64.02,"type":"buoy","owner":"Environment and Climate Change Canada"},"44258":{"name":"Halifax Harbour","lat":44.5,"lon":-63.4,"type":"buoy","owner":"Environment and Climate Change Canada"},"44488":{"name":"East of Chedabucto Bay","lat":45.44,"lon":-60.95,"type":"buoy","owner":"Environment and Climate Change Canada"},"44489":{"name":"West Chedabucto Bay","lat":45.49,"lon":-61.14,"type":"buoy","owner":"Environment and Climate Change Canada"},"45013":{"name":"ATW20 - Atwater Park, WI","lat":43.1,"lon":-87.85,"type":"buoy","owner":"University of Wisconsin-Milwaukee"},"45026":{"name":"Cook Nuclear Plant Buoy, Stevensville, MI","lat":41.982,"lon":-86.619,"type":"buoy","owner":"Limno Tech"},"45029":{"name":"Holland Buoy, MI","lat":42.9,"lon":-86.272,"type":"buoy","owner":"Limno Tech"},"45168":{"name":"South Haven Buoy, MI","lat":42.397,"lon":-86.331,"type":"buoy","owner":"Limno Tech"},"45186":{"name":"Waukegan Buoy, IL","lat":42.368,"lon":-87.795,"type":"buoy","owner":"University of Illinois at Urbana-Champaign"},"45187":{"name":"Winthrop Harbor Buoy, IL","lat":42.491,"lon":-87.779,"type":"buoy","owner":"University of Illinois at Urbana-Champaign"},"45199":{"name":"Salmon Unlimited Wisconsin","lat":42.702,"lon":-87.647,"type":"buoy","owner":"Salmon Unlimited Wisconsin"},"45209":{"name":"Lakeport Buoy, MI","lat":43.129,"lon":-82.391,"type":"buoy","owner":"Great Lakes Water Authority"},"45215":{"name":"Oswego, NY (274)","lat":43.501,"lon":-76.539,"type":"buoy","owner":"SCRIPPS"},"46004":{"name":"Middle Nomad","lat":50.93,"lon":-136.1,"type":"buoy","owner":"Environment and Climate Change Canada"},"46036":{"name":"South Nomad","lat":48.36,"lon":-133.94,"type":"buoy","owner":"Environment and Climate Change Canada"},"46092":{"name":"MBM1","lat":36.751,"lon":-122.029,"type":"buoy","owner":"MBARI"},"46097":{"name":"OOI Newport Shelf","lat":44.639,"lon":-124.304,"type":"buoy","owner":"NSF Ocean Observatories Initiative"},"46108":{"name":"Lower Cook Inlet (204)","lat":59.598,"lon":-151.828,"type":"buoy","owner":"Alaska Ocean Observing System"},"46120":{"name":"Pt Wells, WA (U of Wash)","lat":47.761,"lon":-122.397,"type":"buoy","owner":"University of Washington"},"46123":{"name":"Twanoh - Hood Canal, WA (U of Wash)","lat":47.375,"lon":-123.008,"type":"buoy","owner":"University of Washington"},"46125":{"name":"Hansville - Hood Canal, WA","lat":47.907,"lon":-122.627,"type":"buoy","owner":"University of Washington"},"46131":{"name":"Sentry Shoal","lat":49.91,"lon":-124.98,"type":"buoy","owner":"Environment and Climate Change Canada"},"46132":{"name":"South Brooks","lat":49.78,"lon":-127.89,"type":"buoy","owner":"Environment and Climate Change Canada"},"46145":{"name":"Central Dixon Entrance Buoy","lat":54.37,"lon":-132.42,"type":"buoy","owner":"Environment and Climate Change Canada"},"46146":{"name":"Halibut Bank","lat":49.34,"lon":-123.73,"type":"buoy","owner":"Environment and Climate Change Canada"},"46181":{"name":"Nanakwa Shoal","lat":53.83,"lon":-128.83,"type":"buoy","owner":"Environment and Climate Change Canada"},"46184":{"name":"North Nomad","lat":53.92,"lon":-138.85,"type":"buoy","owner":"Environment and Climate Change Canada"},"46204":{"name":"West Sea Otter","lat":51.38,"lon":-128.77,"type":"buoy","owner":"Environment and Climate Change Canada"},"46205":{"name":"West Dixon Entrance","lat":54.18,"lon":-134.32,"type":"buoy","owner":"Environment and Climate Change Canada"},"46207":{"name":"East Dellwood","lat":50.87,"lon":-129.92,"type":"buoy","owner":"Environment and Climate Change Canada"},"46208":{"name":"West Moresby","lat":52.52,"lon":-132.69,"type":"buoy","owner":"Environment and Climate Change Canada"},"46211":{"name":"Grays Harbor, WA (036)","lat":46.857,"lon":-124.243,"type":"buoy","owner":"SCRIPPS"},"46213":{"name":"Cape Mendocino, CA (094)","lat":40.292,"lon":-124.748,"type":"buoy","owner":"SCRIPPS"},"46214":{"name":"Point Reyes, CA (029)","lat":37.944,"lon":-123.466,"type":"buoy","owner":"SCRIPPS"},"46215":{"name":"Diablo Canyon, CA (076)","lat":35.204,"lon":-120.859,"type":"buoy","owner":"SCRIPPS"},"46218":{"name":"Harvest, CA (071)","lat":34.452,"lon":-120.78,"type":"buoy","owner":"SCRIPPS"},"46219":{"name":"San Nicolas Island, CA (067)","lat":33.226,"lon":-119.891,"type":"buoy","owner":"SCRIPPS"},"46221":{"name":"Santa Monica Bay, CA (028)","lat":33.86,"lon":-118.641,"type":"buoy","owner":"SCRIPPS"},"46222":{"name":"San Pedro, CA (092)","lat":33.614,"lon":-118.314,"type":"buoy","owner":"SCRIPPS"},"46224":{"name":"Oceanside Offshore, CA (045)","lat":33.178,"lon":-117.472,"type":"buoy","owner":"SCRIPPS"},"46225":{"name":"Torrey Pines Outer, CA (100)","lat":32.933,"lon":-117.391,"type":"buoy","owner":"SCRIPPS"},"46229":{"name":"UMPQUA OFFSHORE, OR (139)","lat":43.772,"lon":-124.549,"type":"buoy","owner":"SCRIPPS"},"46232":{"name":"Point Loma South, CA  (191)","lat":32.517,"lon":-117.425,"type":"buoy","owner":"SCRIPPS"},"46235":{"name":"Imperial Beach Nearshore, CA (155)","lat":32.57,"lon":-117.169,"type":"buoy","owner":"SCRIPPS"},"46236":{"name":"Monterey Canyon Outer, CA  (156)","lat":36.759,"lon":-121.95,"type":"buoy","owner":"SCRIPPS"},"46237":{"name":"San Francisco Bar, CA  (142)","lat":37.788,"lon":-122.634,"type":"buoy","owner":"SCRIPPS"},"46239":{"name":"Point Sur, CA (157)","lat":36.342,"lon":-122.11,"type":"buoy","owner":"SCRIPPS"},"46240":{"name":"Cabrillo Point, Monterey Bay, CA  (158)","lat":36.626,"lon":-121.907,"type":"buoy","owner":"SCRIPPS"},"46243":{"name":"Clatsop Spit, OR (162)","lat":46.215,"lon":-124.129,"type":"buoy","owner":"SCRIPPS"},"46244":{"name":"Humboldt Bay, North Spit, CA (168)","lat":40.896,"lon":-124.358,"type":"buoy","owner":"SCRIPPS"},"46246":{"name":"Ocean Station PAPA  (166)","lat":49.903,"lon":-145.246,"type":"buoy","owner":"APL-UW, University of Washington Applied Physics Laboratory"},"46248":{"name":"Astoria Canyon, OR  (179)","lat":46.133,"lon":-124.64,"type":"buoy","owner":"SCRIPPS"},"46251":{"name":"Santa Cruz Basin, CA (203)","lat":33.769,"lon":-119.565,"type":"buoy","owner":"SCRIPPS"},"46253":{"name":"San Pedro South, CA (213)","lat":33.576,"lon":-118.182,"type":"buoy","owner":"SCRIPPS"},"46254":{"name":"SCRIPPS Nearshore, CA (201)","lat":32.868,"lon":-117.267,"type":"buoy","owner":"SCRIPPS"},"46256":{"name":"Long Beach Channel, CA (215)","lat":33.7,"lon":-118.201,"type":"buoy","owner":"SCRIPPS"},"46258":{"name":"Mission Bay West, CA (220)","lat":32.749,"lon":-117.502,"type":"buoy","owner":"SCRIPPS"},"46259":{"name":"Santa Lucia Escarpment, CA (222)","lat":34.774,"lon":-121.491,"type":"buoy","owner":"U.S. Army Corps of Engineers"},"46266":{"name":"Del Mar Nearshore, CA (153)","lat":32.957,"lon":-117.279,"type":"buoy","owner":"U.S. Army Corps of Engineers"},"46268":{"name":"Topanga Nearshore, CA (103)","lat":34.022,"lon":-118.578,"type":"buoy","owner":"SCRIPPS"},"46274":{"name":"Leucadia Nearshore, CA (262)","lat":33.062,"lon":-117.314,"type":"buoy","owner":"SCRIPPS"},"46275":{"name":"Red Beach Nearshore, CA (264)","lat":33.291,"lon":-117.501,"type":"buoy","owner":"SCRIPPS"},"46277":{"name":"Green Beach Offshore, CA (271)","lat":33.336,"lon":-117.659,"type":"buoy","owner":"SCRIPPS"},"46278":{"name":"Tillamook Bay South Jetty, OR (270)","lat":45.559,"lon":-123.991,"type":"buoy","owner":"SCRIPPS"},"46281":{"name":"Newport PWS South, OR (278)","lat":44.559,"lon":-124.233,"type":"buoy","owner":"National Renewable Energy Laboratory"},"46283":{"name":"Yaquina Channel SW, OR (280)","lat":44.567,"lon":-124.237,"type":"buoy","owner":"National Renewable Energy Laboratory"},"46285":{"name":"Capistrano Beach Nearshore, CA (284)","lat":33.445,"lon":-117.68,"type":"buoy","owner":"SCRIPPS"},"46303":{"name":"Southern Georgia Strait","lat":49.02,"lon":-123.43,"type":"buoy","owner":"Environment and Climate Change Canada"},"46304":{"name":"Entrance To English Bay","lat":49.3,"lon":-123.36,"type":"buoy","owner":"Environment and Climate Change Canada"},"51202":{"name":"Mokapu Point, HI (098)","lat":21.414,"lon":-157.681,"type":"buoy","owner":"Pacific Islands Ocean Observing System"},"51205":{"name":"Pauwela, Maui, HI (187)","lat":21.018,"lon":-156.421,"type":"buoy","owner":"Pacific Islands Ocean Observing System"},"51206":{"name":"Hilo, Hawaii, HI (188)","lat":19.779,"lon":-154.97,"type":"buoy","owner":"Pacific Islands Ocean Observing System"},"51208":{"name":"Hanalei, Kauai, HI (202)","lat":22.285,"lon":-159.574,"type":"buoy","owner":"Pacific Islands Ocean Observing System"},"51209":{"name":"Aunuu, American Samoa (189)","lat":-14.273,"lon":-170.501,"type":"buoy","owner":"Pacific Islands Ocean Observing System"},"51210":{"name":"Kaneohe Bay, WETS, HI (225)","lat":21.477,"lon":-157.757,"type":"buoy","owner":"Pacific Islands Ocean Observing System"},"51211":{"name":"Pearl Harbor Entrance, HI (233)","lat":21.297,"lon":-157.959,"type":"buoy","owner":"Pacific Islands Ocean Observing System"},"51212":{"name":"Barbers Point, Kalaeloa, HI (238)","lat":21.323,"lon":-158.149,"type":"buoy","owner":"Pacific Islands Ocean Observing System"},"51213":{"name":"Kaumalapau Southwest, Lanai, HI (239)","lat":20.75,"lon":-157.002,"type":"buoy","owner":"Pacific Islands Ocean Observing System"},"51214":{"name":"King-Poloa, American Samoa (273)","lat":-14.296,"lon":-170.875,"type":"buoy","owner":"Pacific Islands Ocean Observing System"},"52200":{"name":"Ipan, Guam (121)","lat":13.354,"lon":144.788,"type":"buoy","owner":"Pacific Islands Ocean Observing System"},"52211":{"name":"Tanapag, Saipan, NMI (197)","lat":15.269,"lon":145.664,"type":"buoy","owner":"Pacific Islands Ocean Observing System"},"53005":{"name":"","lat":-8,"lon":81,"type":"buoy","owner":"Research Moored Array for African-Asian-Australian Monsoon Analysis and Prediction"},"62029":{"name":"K1 Buoy","lat":48.72,"lon":-12.43,"type":"buoy","owner":"UK Met Office"},"62030":{"name":"L4 Buoy","lat":50.25,"lon":-4.217,"type":"buoy","owner":"UK Met Office"},"62050":{"name":"E1","lat":50,"lon":-4.4,"type":"buoy","owner":"UK Met Office"},"62081":{"name":"K2 Buoy","lat":51,"lon":-13.55,"type":"buoy","owner":"UK Met Office"},"62103":{"name":"Channel Lightship","lat":49.9,"lon":-2.9,"type":"fixed","owner":"UK Met Office"},"62105":{"name":"K4 Buoy","lat":55.41,"lon":-11.81,"type":"buoy","owner":"UK Met Office"},"62107":{"name":"Sevenstones Lightship","lat":50.102,"lon":-6.1,"type":"fixed","owner":"UK Met Office"},"62163":{"name":"Brittany Buoy","lat":47.55,"lon":-8.47,"type":"buoy","owner":"UK Met Office"},"62170":{"name":"F3 Light Vessel","lat":51.24,"lon":2,"type":"fixed","owner":"UK Met Office"},"62304":{"name":"Sandettie Lightship","lat":51.102,"lon":1.8,"type":"fixed","owner":"UK Met Office"},"62305":{"name":"Greenwich Lightship","lat":50.4,"lon":0,"type":"fixed","owner":"UK Met Office"},"62442":{"name":"Pap","lat":49,"lon":-16.5,"type":"buoy","owner":"UK Met Office"},"64045":{"name":"K5 Buoy","lat":59.15,"lon":-11.79,"type":"buoy","owner":"UK Met Office"},"64046":{"name":"K7 Buoy","lat":60.483,"lon":-4.167,"type":"buoy","owner":"UK Met Office"},"51wh0":{"name":"WHOTS - Woods Hole Ocean Time-series","lat":22,"lon":-157,"type":"buoy","owner":"Woods Hole Oceanographic Institution"},"abya2":{"name":"Auke Bay Lab Dock, AK","lat":58.381,"lon":-134.646,"type":"fixed","owner":"NWS Alaska Region"},"acxs1":{"name":"Bennett's Point, ACE Basin Reserve, SC","lat":32.559,"lon":-80.454,"type":"fixed","owner":"National Estuarine Research Reserve System"},"ajxa2":{"name":"Juneau AJ Dock, AK","lat":58.287,"lon":-134.398,"type":"fixed","owner":"Marine Exchange of Alaska"},"akxa2":{"name":"Akutan, AK","lat":54.132,"lon":-165.782,"type":"fixed","owner":"Marine Exchange of Alaska"},"anmn6":{"name":"Field Station, Hudson River Reserve, NY","lat":42.018,"lon":-73.917,"type":"fixed","owner":"National Estuarine Research Reserve System"},"anpt2":{"name":"8775241 - Aransas, Aransas Pass, TX","lat":27.837,"lon":-97.039,"type":"fixed","owner":"TCOON"},"apma2":{"name":"Anchorage Port, AK","lat":61.238,"lon":-149.887,"type":"fixed","owner":"Marine Exchange of Alaska"},"apnm4":{"name":"Alpena Harbor Light, Alpena, MI","lat":45.06,"lon":-83.424,"type":"fixed","owner":"GLERL"},"apxa2":{"name":"Anchor Point, Kachemak Bay Reserve, AK","lat":59.77,"lon":-151.868,"type":"fixed","owner":"National Estuarine Research Reserve System"},"apxf1":{"name":"East Bay, Apalachicola Reserve, FL","lat":29.769,"lon":-84.881,"type":"fixed","owner":"National Estuarine Research Reserve System"},"awrt2":{"name":"8774230 - Aransas Wildlife Refuge, TX","lat":28.227,"lon":-96.796,"type":"fixed","owner":"TCOON"},"babt2":{"name":"8776604 - Baffin Bay, TX","lat":27.297,"lon":-97.405,"type":"fixed","owner":"TCOON"},"barn6":{"name":"Barcelona Harbor, NY","lat":42.345,"lon":-79.595,"type":"fixed","owner":"NWS Eastern Region"},"bcfm2":{"name":"Brewerton Channel Range Front Light (8574831)","lat":39.205,"lon":-76.524,"type":"fixed","owner":"NOAA NOS PORTS"},"bdvf1":{"name":"Broad River, FL","lat":25.478,"lon":-80.989,"type":"fixed","owner":"Everglades National Park"},"bdxc1":{"name":"Bodega, CA","lat":38.317,"lon":-123.071,"type":"fixed","owner":"University of California Davis, Bodega Marine Laboratory"},"bexa2":{"name":"Bethel, AK","lat":60.791,"lon":-161.749,"type":"fixed","owner":"Marine Exchange of Alaska"},"bgxn3":{"name":"Greenland, Great Bay Reserve, NH","lat":43.059,"lon":-70.83,"type":"fixed","owner":"National Estuarine Research Reserve System"},"bhri3":{"name":"Burns Harbor, IN","lat":41.646,"lon":-87.147,"type":"fixed","owner":"NWS Central Region"},"bigm4":{"name":"Big Bay, MI","lat":46.827,"lon":-87.727,"type":"fixed","owner":"NWS Central Region"},"bkyf1":{"name":"Buoy Key, FL","lat":25.119,"lon":-80.834,"type":"fixed","owner":"Everglades National Park"},"bnkf1":{"name":"Butternut Key, FL","lat":25.087,"lon":-80.519,"type":"fixed","owner":"Everglades National Park"},"bobf1":{"name":"Bob Allen, FL","lat":25.027,"lon":-80.681,"type":"fixed","owner":"Everglades National Park"},"bsbm4":{"name":"Big Sable Point, MI","lat":44.055,"lon":-86.514,"type":"fixed","owner":"NWS Central Region"},"bwsf1":{"name":"Blackwater Sound, FL","lat":25.178,"lon":-80.438,"type":"fixed","owner":"Everglades National Park"},"bzst2":{"name":"8779749 - SPI Brazos Santiago, TX ","lat":26.067,"lon":-97.155,"type":"fixed","owner":"TCOON"},"canf1":{"name":"Cane Patch, FL","lat":25.422,"lon":-80.942,"type":"fixed","owner":"Everglades National Park"},"cblo1":{"name":"Conneaut Breakwater Light, OH","lat":41.981,"lon":-80.556,"type":"fixed","owner":"NWS Eastern Region"},"cdea2":{"name":"Cape Decision, AK","lat":56.001,"lon":-134.136,"type":"fixed","owner":"NWS Alaska Region"},"chii2":{"name":"Harrison-Dever Crib, Chicago, IL","lat":41.916,"lon":-87.572,"type":"fixed","owner":"GLERL"},"clsm4":{"name":"St. Clair Shores, MI","lat":42.471,"lon":-82.877,"type":"fixed","owner":"NWS Central Region"},"cmln3":{"name":"Coastal Marine Lab, New Castle, NH","lat":43.07,"lon":-70.7,"type":"fixed","owner":"University of New Hampshire"},"cnbf1":{"name":"Cannon Bay, FL","lat":25.702,"lon":-81.186,"type":"fixed","owner":"Everglades National Park"},"cnii2":{"name":"Northerly Isle, IL","lat":41.856,"lon":-87.609,"type":"fixed","owner":"NWS Central Region"},"coxa2":{"name":"Cordova, AK","lat":60.542,"lon":-145.766,"type":"fixed","owner":"Marine Exchange of Alaska"},"cpsa2":{"name":"Cape Seniavin, AK","lat":56.397,"lon":-160.142,"type":"fixed","owner":"Marine Exchange of Alaska"},"cpxa2":{"name":"Captains Bay","lat":53.843,"lon":-166.583,"type":"fixed","owner":"Marine Exchange of Alaska"},"cpxc1":{"name":"Cal Poly Pier, CA","lat":35.17,"lon":-120.741,"type":"fixed","owner":"California Polytechnic State University"},"crga2":{"name":"Craig, AK","lat":55.474,"lon":-133.136,"type":"fixed","owner":"NWS Alaska Region"},"cspa2":{"name":"Cape Spencer, AK","lat":58.199,"lon":-136.64,"type":"fixed","owner":"NWS Alaska Region"},"csxa2":{"name":"Cape Spencer WX","lat":58.199,"lon":-136.641,"type":"fixed","owner":"Marine Exchange of Alaska"},"cwci":{"name":"Caribou Island","lat":47.334,"lon":-85.833,"type":"fixed","owner":"Environment and Climate Change Canada"},"cxhn6":{"name":"Coxsackie, Hudson River (8518979)","lat":42.353,"lon":-73.795,"type":"fixed","owner":"NOAA NOS PORTS"},"cygm4":{"name":"Cheboygan Marina, MI","lat":45.658,"lon":-84.464,"type":"fixed","owner":"NWS Central Region"},"dcxa2":{"name":"Devils Cove","lat":58.351,"lon":-154.127,"type":"fixed","owner":"Marine Exchange of Alaska"},"dhxa2":{"name":"Deadhorse, AK","lat":70.222,"lon":-148.419,"type":"fixed","owner":"Marine Exchange of Alaska"},"dkkf1":{"name":"Duck Key, FL","lat":25.18,"lon":-80.49,"type":"fixed","owner":"Everglades National Park"},"dpha1":{"name":"Dauphin Island Sea Lab, AL","lat":30.251,"lon":-88.078,"type":"fixed","owner":"Dauphin Island Sea Lab"},"dpla2":{"name":"Dutch Harbor APL, AK","lat":53.884,"lon":-166.531,"type":"fixed","owner":"Marine Exchange of Alaska"},"dpxa2":{"name":"Dutch Harbor Pilot Station, AK","lat":53.889,"lon":-166.542,"type":"fixed","owner":"Marine Exchange of Alaska"},"drsd1":{"name":"Saint Jones River, Delaware Reserve, DE","lat":39.089,"lon":-75.437,"type":"fixed","owner":"National Estuarine Research Reserve System"},"elxa2":{"name":"Cape St. Elias","lat":59.798,"lon":-144.6,"type":"fixed","owner":"Marine Exchange of Alaska"},"elxc1":{"name":"Caspian Weather Station, Elkhorn Slough Reserve, CA","lat":36.815,"lon":-121.738,"type":"fixed","owner":"National Estuarine Research Reserve System"},"emat2":{"name":"8773146 - Matagorda City, TX","lat":28.71,"lon":-95.914,"type":"fixed","owner":"TCOON"},"eptt2":{"name":"8771013 - Eagle Point, TX","lat":29.481,"lon":-94.917,"type":"fixed","owner":"TCOON"},"erxa2":{"name":"Eldred Rock MXAK, AK","lat":58.971,"lon":-135.221,"type":"fixed","owner":"Marine Exchange of Alaska"},"fptm4":{"name":"Fairport, MI","lat":45.619,"lon":-86.66,"type":"fixed","owner":"NWS Central Region"},"gbif1":{"name":"Gunboat Island, FL","lat":25.378,"lon":-81.029,"type":"fixed","owner":"Everglades National Park"},"gbtf1":{"name":"Garfield Bight, FL","lat":25.167,"lon":-80.801,"type":"fixed","owner":"Everglades National Park"},"gbxa2":{"name":"Gambell, AK","lat":63.777,"lon":-171.715,"type":"fixed","owner":"Marine Exchange of Alaska"},"gdxm6":{"name":"Crooked Bayou, Grand Bay Reserve, MS","lat":30.359,"lon":-88.42,"type":"fixed","owner":"National Estuarine Research Reserve System"},"gexa2":{"name":"George Island, Alaska","lat":58.213,"lon":-136.381,"type":"fixed","owner":"Marine Exchange of Alaska"},"gixa2":{"name":"Guard Island, AK","lat":55.446,"lon":-131.881,"type":"fixed","owner":"Marine Exchange of Alaska"},"gpxa2":{"name":"Grave Point, AK","lat":58.062,"lon":-134.051,"type":"fixed","owner":"Marine Exchange of Alaska"},"grmm4":{"name":"Grand Marais, MI","lat":46.684,"lon":-85.972,"type":"fixed","owner":"NWS Central Region"},"grrt2":{"name":"8771486 - Galveston RR Bridge, TX","lat":29.302,"lon":-94.896,"type":"fixed","owner":"TCOON"},"gtlm4":{"name":"Grand Traverse Light, MI","lat":45.211,"lon":-85.55,"type":"fixed","owner":"NWS Central Region"},"gtxf1":{"name":"Pellicer Creek, Guana Tolomato Matanzas Reserve, FL","lat":29.658,"lon":-81.233,"type":"fixed","owner":"National Estuarine Research Reserve System"},"guxa2":{"name":"Gustavus Dock, AK","lat":58.408,"lon":-135.726,"type":"fixed","owner":"Marine Exchange of Alaska"},"haxa2":{"name":"Haines Harbor, AK","lat":59.234,"lon":-135.442,"type":"fixed","owner":"Marine Exchange of Alaska"},"hbxc1":{"name":"Humboldt, CA","lat":40.777,"lon":-124.197,"type":"fixed","owner":"Central and Northern California Ocean Observing System"},"hcef1":{"name":"Highway Creek, FL","lat":25.254,"lon":-80.444,"type":"fixed","owner":"Everglades National Park"},"hhlo1":{"name":"Huron Harbor Light, OH","lat":41.401,"lon":-82.545,"type":"fixed","owner":"NWS Eastern Region"},"hist2":{"name":"8770808 - High Island, TX","lat":29.595,"lon":-94.39,"type":"fixed","owner":"TCOON"},"hmra2":{"name":"Homer, Kachemak Bay Reserve, AK","lat":59.601,"lon":-151.41,"type":"fixed","owner":"National Estuarine Research Reserve System"},"hmsa2":{"name":"Homer Spit, AK","lat":59.602,"lon":-151.417,"type":"fixed","owner":"Marine Exchange of Alaska"},"href1":{"name":"Harney River, FL","lat":25.424,"lon":-81.06,"type":"fixed","owner":"Everglades National Park"},"hrrh1":{"name":"Lono Circle, He'eia Reserve, HI","lat":21.431,"lon":-157.815,"type":"fixed","owner":"National Estuarine Research Reserve System"},"irdt2":{"name":"8776139 - South Bird Island, TX","lat":27.48,"lon":-97.322,"type":"fixed","owner":"TCOON"},"jbyf1":{"name":"Joe Bay, FL","lat":25.224,"lon":-80.541,"type":"fixed","owner":"Everglades National Park"},"jcrn4":{"name":"Nacote Creek, Jacques Cousteau Reserve, NJ","lat":39.535,"lon":-74.464,"type":"fixed","owner":"National Estuarine Research Reserve System"},"jkyf1":{"name":"Johnson Key, FL","lat":25.053,"lon":-80.904,"type":"fixed","owner":"Everglades National Park"},"jlxa2":{"name":"Juneau Library, AK","lat":58.298,"lon":-134.405,"type":"fixed","owner":"Marine Exchange of Alaska"},"jmla2":{"name":"Juneau AML Dock","lat":58.286,"lon":-134.39,"type":"fixed","owner":"Marine Exchange of Alaska"},"jnga2":{"name":"Juneau ANG Dock, AK","lat":58.291,"lon":-134.394,"type":"fixed","owner":"Marine Exchange of Alaska"},"joxp4":{"name":"Jobos Bay Weather, Jobos Bay Reserve, PR","lat":17.956,"lon":-66.223,"type":"fixed","owner":"National Estuarine Research Reserve System"},"kata1":{"name":"Katrina Cut, AL","lat":30.258,"lon":-88.213,"type":"fixed","owner":"Dauphin Island Sea Lab"},"kexa2":{"name":"Ketchikan Harbor, AK","lat":55.352,"lon":-131.684,"type":"fixed","owner":"Marine Exchange of Alaska"},"kgna":{"name":"Bay of Grand Marais, MN","lat":47.745,"lon":-90.346,"type":"fixed","owner":"NWS Central Region"},"kgxa2":{"name":"Kodiak Gull Island, AK","lat":57.777,"lon":-152.425,"type":"fixed","owner":"Marine Exchange of Alaska"},"kmxa2":{"name":"Kodiak Matson Crane, AK","lat":57.782,"lon":-152.439,"type":"fixed","owner":"Marine Exchange of Alaska"},"knxa2":{"name":"Kenai, AK","lat":60.552,"lon":-151.274,"type":"fixed","owner":"Marine Exchange of Alaska"},"koza2":{"name":"KOTZEBUE MXAK, AK","lat":66.901,"lon":-162.589,"type":"fixed","owner":"Marine Exchange of Alaska"},"kp53":{"name":"Munising Lake Shore, MI","lat":46.417,"lon":-86.65,"type":"fixed","owner":"NWS Central Region"},"kp58":{"name":"Port Hope, MI","lat":44.017,"lon":-82.8,"type":"fixed","owner":"NWS Central Region"},"kp59":{"name":"Copper Harbor, MI","lat":47.467,"lon":-87.883,"type":"fixed","owner":"NWS Central Region"},"lbsf1":{"name":"Little Blackwater, FL","lat":25.214,"lon":-80.432,"type":"fixed","owner":"Everglades National Park"},"lcna2":{"name":"Lincoln Island, AK","lat":56.058,"lon":-132.69,"type":"fixed","owner":"NWS Alaska Region"},"lixa2":{"name":"Little Island, AK","lat":58.54,"lon":-135.047,"type":"fixed","owner":"Marine Exchange of Alaska"},"ljpc1":{"name":"La Jolla, CA (073)","lat":32.867,"lon":-117.257,"type":"fixed","owner":"SCRIPPS"},"lmdf1":{"name":"Little Madeira, FL","lat":25.176,"lon":-80.633,"type":"fixed","owner":"Everglades National Park"},"lmfs1":{"name":"Lake Murray SC","lat":34.107,"lon":-81.271,"type":"fixed","owner":"NWS Eastern Region"},"lmrf1":{"name":"Lostmans River, FL","lat":25.556,"lon":-81.169,"type":"fixed","owner":"Everglades National Park"},"lrif1":{"name":"Lane River, FL ","lat":25.284,"lon":-80.894,"type":"fixed","owner":"Everglades National Park"},"lrkf1":{"name":"Little Rabbit Key, FL","lat":24.982,"lon":-80.826,"type":"fixed","owner":"Everglades National Park"},"lsnf1":{"name":"Long Sound, FL","lat":25.235,"lon":-80.457,"type":"fixed","owner":"Everglades National Park"},"luit2":{"name":"8771972 - San Luis Pass, TX","lat":29.076,"lon":-95.122,"type":"fixed","owner":"TCOON"},"mbin7":{"name":"Masonboro Island, NC (MSNB_S)","lat":34.091,"lon":-77.868,"type":"fixed","owner":"CORMP"},"mbnn7":{"name":"Masonboro Island, NC (MSNB_N)","lat":34.171,"lon":-77.824,"type":"fixed","owner":"CORMP"},"mbxc1":{"name":"Morro Bay - BM1 T-Pier, CA","lat":35.371,"lon":-120.859,"type":"fixed","owner":"California Polytechnic State University"},"mcyi3":{"name":"Michigan City Harbor Entrance Light, Michigan City, IN","lat":41.729,"lon":-86.912,"type":"fixed","owner":"GLERL"},"mdkf1":{"name":"Middle Key, FL","lat":25.289,"lon":-80.396,"type":"fixed","owner":"Everglades National Park"},"mdxa2":{"name":"Middleton Island, AK","lat":59.438,"lon":-146.327,"type":"fixed","owner":"Marine Exchange of Alaska"},"mgpt2":{"name":"8770613 - Morgans Point, TX","lat":29.682,"lon":-94.985,"type":"fixed","owner":"TCOON"},"mist2":{"name":"Ship Channel, Mission-Aransas Reserve, TX","lat":27.838,"lon":-97.05,"type":"fixed","owner":"National Estuarine Research Reserve System"},"mixa2":{"name":"Midway Island, AK","lat":57.837,"lon":-133.814,"type":"fixed","owner":"Marine Exchange of Alaska"},"mkgm4":{"name":"Muskegon CG Station, Muskegon, MI","lat":43.228,"lon":-86.339,"type":"fixed","owner":"GLERL"},"mlsc1":{"name":"Moss Landing, South Harbor, CA","lat":36.802,"lon":-121.791,"type":"fixed","owner":"Moss Landing Marine Lab"},"mlww3":{"name":"Port of Milwaukee","lat":43.005,"lon":-87.884,"type":"fixed","owner":"GLERL"},"mnbf1":{"name":"Manatee Bay, FL","lat":25.239,"lon":-80.422,"type":"fixed","owner":"Everglades National Park"},"mrna2":{"name":"Marmion Island, AK","lat":58.198,"lon":-134.257,"type":"fixed","owner":"Marine Exchange of Alaska"},"mrya2":{"name":"Mary Island, AK","lat":55.099,"lon":-131.182,"type":"fixed","owner":"Marine Exchange of Alaska"},"mukf1":{"name":"Murray Key, FL","lat":25.106,"lon":-80.942,"type":"fixed","owner":"Everglades National Park"},"mvxa2":{"name":"Mendenhall Valley, AK","lat":58.364,"lon":-134.606,"type":"fixed","owner":"Marine Exchange of Alaska"},"mxxa2":{"name":"MXAK Office, AK","lat":58.301,"lon":-134.425,"type":"fixed","owner":"Marine Exchange of Alaska"},"nabm4":{"name":"Naubinway, MI","lat":46.087,"lon":-85.444,"type":"fixed","owner":"NWS Central Region"},"naxr1":{"name":"Potters Cove, Narragansett Bay Reserve, RI","lat":41.637,"lon":-71.339,"type":"fixed","owner":"National Estuarine Research Reserve System"},"ncht2":{"name":"8770777 - Manchester, TX ","lat":29.726,"lon":-95.266,"type":"fixed","owner":"TCOON"},"niws1":{"name":"Oyster Landing, North Inlet-Winyah Bay Reserve, SC","lat":33.349,"lon":-79.189,"type":"fixed","owner":"National Estuarine Research Reserve System"},"nkxa2":{"name":"Naked Island, AK","lat":58.255,"lon":-134.945,"type":"fixed","owner":"Marine Exchange of Alaska"},"nlxa2":{"name":"Nelson Lagoon, AK","lat":56.005,"lon":-161.177,"type":"fixed","owner":"Marine Exchange of Alaska"},"nmxa2":{"name":"Nome, AK","lat":64.494,"lon":-165.44,"type":"fixed","owner":"Marine Exchange of Alaska"},"npdw3":{"name":"Northport Pier at Death's Door, WI","lat":45.291,"lon":-86.977,"type":"fixed","owner":"NWS Central Region"},"npxn6":{"name":"Norrie Point, Hudson River Reserve, NY","lat":41.831,"lon":-73.942,"type":"fixed","owner":"National Estuarine Research Reserve System"},"nrep1":{"name":"Northeast Marina, PA","lat":42.258,"lon":-79.792,"type":"fixed","owner":"NWS Eastern Region"},"nrrf1":{"name":"North River, FL","lat":25.338,"lon":-80.911,"type":"fixed","owner":"Everglades National Park"},"nsxa2":{"name":"Nikiski, AK","lat":60.74,"lon":-151.311,"type":"fixed","owner":"Marine Exchange of Alaska"},"olcn6":{"name":"Olcott Harbor, NY","lat":43.341,"lon":-78.719,"type":"fixed","owner":"NWS Eastern Region"},"otnm4":{"name":"Ontonagon, MI","lat":46.87,"lon":-89.33,"type":"fixed","owner":"NWS Central Region"},"owmo1":{"name":"Western Reserve, Old Woman Creek Reserve, OH","lat":41.247,"lon":-82.454,"type":"fixed","owner":"National Estuarine Research Reserve System"},"owxo1":{"name":"Old Woman Creek, Old Woman Creek Reserve, OH","lat":41.378,"lon":-82.508,"type":"fixed","owner":"National Estuarine Research Reserve System"},"pact2":{"name":"8775792 - Packery Channel, TX","lat":27.634,"lon":-97.237,"type":"fixed","owner":"TCOON"},"paua2":{"name":"ST PAUL MXAK, AK","lat":57.124,"lon":-170.271,"type":"fixed","owner":"Marine Exchange of Alaska"},"paxa2":{"name":"Point Arden, AK","lat":58.159,"lon":-134.178,"type":"fixed","owner":"Marine Exchange of Alaska"},"pbfw1":{"name":"Padilla Bay Farm, Padilla Bay Reserve, WA","lat":48.464,"lon":-122.469,"type":"fixed","owner":"National Estuarine Research Reserve System"},"pbpa2":{"name":"Point Bishop, AK","lat":58.203,"lon":-134.148,"type":"fixed","owner":"NWS Alaska Region"},"pcgt2":{"name":"8779748 - South Padre Island CGS, TX ","lat":26.072,"lon":-97.167,"type":"fixed","owner":"TCOON"},"pcnt2":{"name":"8773701 - Port O'Connor, Matagorda Bay, TX","lat":28.446,"lon":-96.396,"type":"fixed","owner":"TCOON"},"pcxa2":{"name":"Point Craven MXAK, AK","lat":57.463,"lon":-134.867,"type":"fixed","owner":"Marine Exchange of Alaska"},"pexa2":{"name":"Pelican MXAK, AK","lat":57.958,"lon":-136.227,"type":"fixed","owner":"Marine Exchange of Alaska"},"pkbw3":{"name":"Pokegama Bay, Lake Superior Reserve, WI","lat":46.672,"lon":-92.136,"type":"fixed","owner":"National Estuarine Research Reserve System"},"pkyf1":{"name":"Peterson Key, FL","lat":24.918,"lon":-80.747,"type":"fixed","owner":"Everglades National Park"},"pmnt2":{"name":"8778490 - Port Mansfield, TX","lat":26.559,"lon":-97.424,"type":"fixed","owner":"TCOON"},"pngw3":{"name":"Port Wing, WI","lat":46.792,"lon":-91.386,"type":"fixed","owner":"NWS Central Region"},"port2":{"name":"8770475 - Port Arthur, TX","lat":29.867,"lon":-93.931,"type":"fixed","owner":"TCOON"},"ppta1":{"name":"Perdido Pass, AL","lat":30.279,"lon":-87.556,"type":"fixed","owner":"Dauphin Island Sea Lab"},"ppxa2":{"name":"Point Pigot","lat":60.801,"lon":-148.357,"type":"fixed","owner":"Marine Exchange of Alaska"},"prta2":{"name":"Point Retreat, AK","lat":58.411,"lon":-134.955,"type":"fixed","owner":"NWS Alaska Region"},"ptla2":{"name":"Portland Island, AK","lat":58.346,"lon":-134.752,"type":"fixed","owner":"Marine Exchange of Alaska"},"pwaw3":{"name":"Port Washington, WI","lat":43.388,"lon":-87.867,"type":"fixed","owner":"NWS Central Region"},"rixa2":{"name":"Rocky Island, AK","lat":58.177,"lon":-135.052,"type":"fixed","owner":"Marine Exchange of Alaska"},"rkxf1":{"name":"Upper Henderson Creek, Rookery Bay Reserve, FL","lat":26.05,"lon":-81.701,"type":"fixed","owner":"National Estuarine Research Reserve System"},"rlit2":{"name":"8779280 - Realitos Peninsula, TX","lat":26.262,"lon":-97.285,"type":"fixed","owner":"TCOON"},"rlot2":{"name":"8770971 - Rollover Pass, TX","lat":29.515,"lon":-94.513,"type":"fixed","owner":"TCOON"},"rprn6":{"name":"Rochester Coast Guard, NY","lat":43.263,"lon":-77.598,"type":"fixed","owner":"NWS Eastern Region"},"rsjt2":{"name":"8777812 - Rincon del San Jose, TX","lat":26.801,"lon":-97.471,"type":"fixed","owner":"TCOON"},"rtat2":{"name":"8775237 - Port Aransas, TX","lat":27.84,"lon":-97.072,"type":"fixed","owner":"TCOON"},"saxg1":{"name":"Marsh Island, Sapelo Island Reserve, GA","lat":31.418,"lon":-81.296,"type":"fixed","owner":"National Estuarine Research Reserve System"},"sblm4":{"name":"Saginaw Bay Light #1, MI","lat":43.81,"lon":-83.72,"type":"fixed","owner":"NWS Central Region"},"scxa2":{"name":"Scull Island, AK","lat":58.205,"lon":-134.646,"type":"fixed","owner":"Marine Exchange of Alaska"},"sdrt2":{"name":"8773037 - Seadrift, TX","lat":28.407,"lon":-96.712,"type":"fixed","owner":"TCOON"},"sfxc1":{"name":"Rush Ranch, San Francisco Bay Reserve, CA","lat":38.2,"lon":-122.026,"type":"fixed","owner":"National Estuarine Research Reserve System"},"sgxa2":{"name":"ST GEORGE MXAK","lat":56.599,"lon":-169.542,"type":"fixed","owner":"Marine Exchange of Alaska"},"shxa2":{"name":"Sitka Harbor, AK","lat":57.055,"lon":-135.349,"type":"fixed","owner":"Marine Exchange of Alaska"},"skda2":{"name":"Skagway Ore Dock","lat":59.449,"lon":-135.331,"type":"fixed","owner":"Marine Exchange of Alaska"},"skxa2":{"name":"Skagway MXAK, AK","lat":59.448,"lon":-135.326,"type":"fixed","owner":"Marine Exchange of Alaska"},"slvm5":{"name":"Silver Bay, MN","lat":47.278,"lon":-91.27,"type":"fixed","owner":"NWS Central Region"},"slxa2":{"name":"Salmon Landing, AK","lat":55.34,"lon":-131.644,"type":"fixed","owner":"Marine Exchange of Alaska"},"snto3":{"name":"Tom's Creek, South Slough Reserve, OR","lat":43.279,"lon":-124.318,"type":"fixed","owner":"National Estuarine Research Reserve System"},"spxa2":{"name":"Ship Island, AK","lat":55.599,"lon":-132.203,"type":"fixed","owner":"Marine Exchange of Alaska"},"sref1":{"name":"Shark River, FL","lat":25.352,"lon":-81.1,"type":"fixed","owner":"Everglades National Park"},"srxa2":{"name":"Statter Harbor MXAK, AK","lat":58.383,"lon":-134.652,"type":"fixed","owner":"Marine Exchange of Alaska"},"ssbn7":{"name":"Sunset Beach Nearshore Waves (SUN2WAVE)","lat":33.838,"lon":-78.484,"type":"buoy","owner":"CORMP"},"stxa2":{"name":"Sitka AML, AK","lat":57.116,"lon":-135.391,"type":"fixed","owner":"Marine Exchange of Alaska"},"svnm4":{"name":"South Haven Light, South Haven, MI","lat":42.401,"lon":-86.288,"type":"fixed","owner":"GLERL"},"swxa2":{"name":"Seward Harbor, AK","lat":60.116,"lon":-149.434,"type":"fixed","owner":"Marine Exchange of Alaska"},"sxhw3":{"name":"Saxon Harbor, WI","lat":46.563,"lon":-90.437,"type":"fixed","owner":"NWS Central Region"},"sxxa2":{"name":"Saxman Landing, AK","lat":55.315,"lon":-131.596,"type":"fixed","owner":"Marine Exchange of Alaska"},"taqt2":{"name":"8775296 - USS Lexington, TX","lat":27.815,"lon":-97.389,"type":"fixed","owner":"TCOON"},"tawm4":{"name":"Tawas Point, MI","lat":44.254,"lon":-83.449,"type":"fixed","owner":"NWS Central Region"},"tbyf1":{"name":"Terrapin Bay, FL","lat":25.155,"lon":-80.722,"type":"fixed","owner":"Everglades National Park"},"tcvf1":{"name":"Trout Cove, FL","lat":25.213,"lon":-80.533,"type":"fixed","owner":"Everglades National Park"},"tdpc1":{"name":"Trinidad Pier Trinidad, CA","lat":41.055,"lon":-124.147,"type":"fixed","owner":"Central and Northern California Ocean Observing System"},"tgxa2":{"name":"Togiak, Alaska","lat":59.055,"lon":-160.334,"type":"fixed","owner":"Marine Exchange of Alaska"},"thlo1":{"name":"Toledo Light No. 2 OH","lat":41.826,"lon":-83.194,"type":"fixed","owner":"GLERL"},"thrf1":{"name":"Thursday Point, FL","lat":25.203,"lon":-80.372,"type":"fixed","owner":"Everglades National Park"},"tibc1":{"name":"Tiburon Pier, San Francisco Bay, CA","lat":37.892,"lon":-122.447,"type":"fixed","owner":"Central and Northern California Ocean Observing System"},"tixc1":{"name":"Tidal Linkage, Tijuana River Reserve, CA","lat":32.575,"lon":-117.127,"type":"fixed","owner":"National Estuarine Research Reserve System"},"tkea2":{"name":"Tenakee Springs, AK","lat":57.779,"lon":-135.219,"type":"fixed","owner":"Marine Exchange of Alaska"},"tkpn6":{"name":"Turkey Point Hudson River NERRS, NY (NOS 8518962)","lat":42.014,"lon":-73.939,"type":"fixed","owner":"National Estuarine Research Reserve System"},"tpef1":{"name":"Tarpon Bay East, FL","lat":25.41,"lon":-80.964,"type":"fixed","owner":"Everglades National Park"},"tpxa2":{"name":"Tree Point, AK","lat":54.802,"lon":-130.934,"type":"fixed","owner":"Marine Exchange of Alaska"},"trrf1":{"name":"Taylor River, FL","lat":25.217,"lon":-80.65,"type":"fixed","owner":"Everglades National Park"},"twco1":{"name":"Toledo Crib, OH","lat":41.699,"lon":-83.259,"type":"fixed","owner":"Limno Tech"},"uqxa2":{"name":"Utqiagvik, AK","lat":71.315,"lon":-156.722,"type":"fixed","owner":"Marine Exchange of Alaska"},"vcat2":{"name":"8773259 - Port Lavaca, TX ","lat":28.64,"lon":-96.609,"type":"fixed","owner":"TCOON"},"vdxa2":{"name":"Valdez, AK","lat":61.127,"lon":-146.344,"type":"fixed","owner":"Marine Exchange of Alaska"},"wats1":{"name":"Lake Wateree, SC","lat":34.335,"lon":-80.702,"type":"fixed","owner":"NWS Eastern Region"},"waxm3":{"name":"Carriage House, Waquoit Bay Reserve, MA","lat":41.582,"lon":-70.525,"type":"fixed","owner":"National Estuarine Research Reserve System"},"wbxa2":{"name":"Womens Bay Cargo Pier","lat":57.729,"lon":-152.516,"type":"fixed","owner":"Marine Exchange of Alaska"},"wcxa2":{"name":"Ward Cove, AK","lat":55.402,"lon":-131.729,"type":"fixed","owner":"Marine Exchange of Alaska"},"wexm1":{"name":"Laudholm Farm, Wells Reserve, ME","lat":43.337,"lon":-70.549,"type":"fixed","owner":"National Estuarine Research Reserve System"},"wfxa2":{"name":"Womens Bay Fuel Pier","lat":57.726,"lon":-152.519,"type":"fixed","owner":"Marine Exchange of Alaska"},"wgxa2":{"name":"Wrangell Harbor","lat":56.467,"lon":-132.382,"type":"fixed","owner":"Marine Exchange of Alaska"},"whri2":{"name":"Waukegan Harbor, IL","lat":42.361,"lon":-87.813,"type":"fixed","owner":"NWS Central Region"},"wiwf1":{"name":"Willy Willy, FL","lat":25.587,"lon":-81.044,"type":"fixed","owner":"Everglades National Park"},"wixa2":{"name":"Whittier AMHS, AK","lat":60.777,"lon":-148.682,"type":"fixed","owner":"Marine Exchange of Alaska"},"wkxa1":{"name":"Safe Harbor Met Station, Weeks Bay Reserve, AL","lat":30.421,"lon":-87.828,"type":"fixed","owner":"National Estuarine Research Reserve System"},"wplf1":{"name":"Watson Place, FL","lat":25.71,"lon":-81.249,"type":"fixed","owner":"Everglades National Park"},"wrbf1":{"name":"Whipray Basin, FL","lat":25.072,"lon":-80.735,"type":"fixed","owner":"Everglades National Park"},"wrxa2":{"name":"Wainwright, AK","lat":70.636,"lon":-160.034,"type":"fixed","owner":"Marine Exchange of Alaska"},"yrsv2":{"name":"Taskinas Creek, Chesapeake Bay Reserve, VA","lat":37.414,"lon":-76.712,"type":"fixed","owner":"National Estuarine Research Reserve System"}}